[
  {
    "id": 14256,
    "coord": {
      "lon": 48.570728,
      "lat": 34.790878
    },
    "country": "IR",
    "geoname": {
      "cl": "P",
      "code": "PPL",
      "parent": 132142
    },
    "langs": [
      {
        "de": "Azad Shahr"
      },
      {
        "fa": "آزادشهر"
      }
    ],
    "name": "Azadshahr",
    "stat": {
      "level": 1.0,
      "population": 514102
    },
    "zoom": 10
  },
  {
    "id": 3109718,
    "coord": {
      "lon": -3.80444,
      "lat": 43.464722
    },
    "country": "ES",
    "geoname": {
      "cl": "P",
      "code": "PPLA",
      "parent": 6360720
    },
    "name": "Santander",
    "stat": {
      "level": 1.0,
      "population": 182700
    },
    "zoom": 8
  },
  {
    "id": 18918,
    "coord": {
      "lon": 34.058331,
      "lat": 35.012501
    },
    "country": "CY",
    "geoname": {
      "cl": "P",
      "code": "PPL",
      "parent": 146615
    },
    "langs": [
      {
        "en": "Protaras"
      },
      {
        "ru": "Протарас"
      }
    ],
    "name": "Protaras",
    "stat": {
      "level": 1.0,
      "population": 20230
    },
    "zoom": 6
  },
  {
    "id": 518255,
    "coord": {
      "lon": 37.770832,
      "lat": 44.723888
    },
    "country": "RU",
    "geoname": {
      "cl": "P",
      "code": "PPL",
      "parent": 542415
    },
    "name": "Novorossiysk",
    "stat": {
      "level": 1.0,
      "population": 241856
    },
    "zoom": 8
  },
  {
    "id": 98182,
    "coord": {
      "lon": 44.400879,
      "lat": 33.34058
    },
    "country": "IQ",
    "geoname": {
      "cl": "P",
      "code": "PPLC",
      "parent": 98180
    },
    "name": "Baghdad",
    "stat": {
      "level": 1.0,
      "population": 5672513
    },
    "zoom": 1
  },
  {
    "id": 2950159,
    "coord": {
      "lon": 13.41053,
      "lat": 52.524368
    },
    "country": "DE",
    "geoname": {
      "cl": "P",
      "code": "PPLC",
      "parent": 2950157
    },
    "name": "Berlin",
    "stat": {
      "level": 1.0,
      "population": 1000000
    },
    "zoom": 4
  },
  {
    "id": 1850147,
    "coord": {
      "lon": 139.691711,
      "lat": 35.689499
    },
    "country": "JP",
    "geoname": {
      "cl": "P",
      "code": "PPLC",
      "parent": 1850144
    },
    "name": "Tokyo",
    "stat": {
      "level": 1.0,
      "population": 8336599
    },
    "zoom": 4
  },
  {
    "id": 6167865,
    "coord": {
      "lon": -79.416298,
      "lat": 43.700111
    },
    "country": "CA",
    "geoname": {
      "cl": "P",
      "code": "PPLA",
      "parent": 6093943
    },
    "langs": [
      {
        "en": "Toronto"
      },
      {
        "fr": "Toronto"
      },
      {
        "ru": "Торонто"
      },
      {
        "ja": "トロント"
      }
    ],
    "name": "Toronto",
    "stat": {
      "level": 1.0,
      "population": 4612191
    },
    "zoom": 5
  },
  {
    "id": 3827406,
    "coord": {
      "lon": -99.165001,
      "lat": 19.385
    },
    "country": "MX",
    "geoname": {
      "cl": "P",
      "code": "PPL",
      "parent": 3527646
    },
    "name": "Benito Juarez",
    "stat": {
      "level": 1.0,
      "population": 355017
    },
    "stations": [
      {
        "id": 3998,
        "dist": 11,
        "kf": 1
      },
      {
        "id": 4022,
        "dist": 42,
        "kf": 1
      },
      {
        "id": 9582,
        "dist": 5,
        "kf": 1
      }
    ],
    "zoom": 12
  },
  {
    "id": 524901,
    "coord": {
      "lon": 37.615555,
      "lat": 55.75222
    },
    "country": "RU",
    "geoname": {
      "cl": "P",
      "code": "PPLC",
      "parent": 524894
    },
    "name": "Moscow",
    "stat": {
      "level": 1.0,
      "population": 1000000
    },
    "zoom": 1
  },
  {
    "id": 756135,
    "coord": {
      "lon": 21.01178,
      "lat": 52.229771
    },
    "country": "PL",
    "geoname": {
      "cl": "P",
      "code": "PPLC",
      "parent": 858787
    },
    "name": "Warsaw",
    "stat": {
      "level": 1.0,
      "population": 1000000
    },
    "zoom": 4
  },
  {
    "id": 2634715,
    "coord": {
      "lon": -1.51667,
      "lat": 54.900002
    },
    "country": "GB",
    "geoname": {
      "cl": "P",
      "code": "PPL",
      "parent": 6269131
    },
    "name": "Washington",
    "stat": {
      "level": 1.0,
      "population": 53526
    },
    "zoom": 11
  },
  {
    "id": 5779068,
    "coord": {
      "lon": -111.906883,
      "lat": 40.84856
    },
    "country": "US",
    "geoname": {
      "cl": "P",
      "code": "PPL",
      "parent": 5773664
    },
    "name": "North Salt Lake",
    "stat": {
      "level": 1.0,
      "population": 16322
    },
    "zoom": 12
  }
]